$GPGGA,061912.00,3037.66357,N,10401.39570,E,4,12,0.61,483.2,M,-29.8,M,1.0,0666*4E
$GPGGA,062117.00,3037.65426,N,10401.41489,E,4,12,0.67,483.2,M,-29.8,M,1.0,0666*4C
$GPGGA,062720.00,3037.64453,N,10401.43275,E,5,12,0.56,483.1,M,-29.8,M,1.0,0666*4A
$GPGGA,062919.00,3037.63529,N,10401.45231,E,4,12,0.56,483.5,M,-29.8,M,1.0,0666*46
$GPGGA,063055.00,3037.62937,N,10401.47093,E,4,12,0.59,483.2,M,-29.8,M,1.0,0666*44
$GPGGA,063439.00,3037.61964,N,10401.48663,E,5,12,0.57,483.2,M,-29.8,M,1.0,0666*46
$GPGGA,063623.00,3037.60946,N,10401.50714,E,4,12,0.67,482.9,M,-29.8,M,1.0,0666*4E
$GPGGA,063808.00,3037.59959,N,10401.52793,E,4,12,0.62,482.7,M,-29.8,M,1.0,0666*4B
$GPGGA,064016.00,3037.60011,N,10401.54283,E,4,12,0.56,483.0,M,-29.8,M,1.0,0666*47
$GPGGA,064141.00,3037.61873,N,10401.55504,E,4,12,0.57,483.1,M,-29.8,M,1.0,0666*40
$GPGGA,064328.00,3037.63995,N,10401.56790,E,4,12,0.57,483.2,M,-29.8,M,1.0,0666*49
$GPGGA,064553.00,3037.66045,N,10401.58145,E,4,12,0.58,483.3,M,-29.8,M,1.0,0666*4C
$GPGGA,064718.00,3037.67380,N,10401.59008,E,4,12,0.58,483.4,M,-29.8,M,1.0,0666*44
$GPGGA,064911.00,3037.69243,N,10401.60210,E,4,12,0.58,483.5,M,-29.8,M,1.0,0666*43
$GPGGA,065116.00,3037.71031,N,10401.60916,E,4,12,0.54,483.7,M,-29.8,M,1.0,0666*40
$GPGGA,065242.00,3037.71597,N,10401.60086,E,4,12,0.56,483.8,M,-29.8,M,1.0,0666*46
$GPGGA,065452.00,3037.72435,N,10401.58597,E,4,12,0.53,483.8,M,-29.8,M,1.0,0666*40
$GPGGA,065650.00,3037.73340,N,10401.56966,E,4,12,0.53,484.0,M,-29.8,M,1.0,0666*47
$GPGGA,065819.00,3037.74194,N,10401.55421,E,4,12,0.58,483.9,M,-29.8,M,1.0,0666*40
$GPGGA,065954.00,3037.73843,N,10401.53661,E,4,12,0.54,483.9,M,-29.8,M,1.0,0666*40
$GPGGA,070134.00,3037.72282,N,10401.52663,E,4,12,0.59,483.9,M,-29.8,M,1.0,0666*42
$GPGGA,070309.00,3037.71051,N,10401.51886,E,4,12,0.54,483.7,M,-29.8,M,1.0,0666*44
$GPGGA,070553.00,3037.69774,N,10401.51063,E,5,12,0.63,483.7,M,-29.8,M,1.0,0666*42
$GPGGA,070828.00,3037.68118,N,10401.49995,E,4,12,0.64,483.6,M,-29.8,M,1.0,0666*40
$GPGGA,071019.00,3037.66775,N,10401.49158,E,4,12,0.67,483.3,M,-29.8,M,1.0,0666*47
$GPGGA,071215.00,3037.65383,N,10401.48285,E,4,12,0.67,483.4,M,-29.8,M,1.0,0666*42
$GPGGA,071354.00,3037.63958,N,10401.47386,E,4,12,0.61,483.3,M,-29.8,M,1.0,0666*40
$GPGGA,071944.00,3037.74913,N,10401.53948,E,4,12,0.54,483.9,M,-29.8,M,1.0,0666*43
$GPGGA,072213.00,3037.76001,N,10401.52357,E,4,12,0.56,483.9,M,-29.8,M,1.0,0666*46
$GPGGA,072435.00,3037.77446,N,10401.49780,E,4,12,0.66,484.1,M,-29.8,M,1.0,0666*4A
$GPGGA,072838.00,3037.78800,N,10401.46842,E,4,12,0.55,484.0,M,-29.8,M,1.0,0666*45
$GPGGA,073042.00,3037.79684,N,10401.44989,E,4,12,0.64,484.1,M,-29.8,M,1.0,0666*45
$GPGGA,073230.00,3037.80789,N,10401.43408,E,4,12,0.67,484.3,M,-29.8,M,1.0,0666*4A
$GPGGA,073504.00,3037.81844,N,10401.41552,E,4,12,0.54,484.2,M,-29.8,M,1.0,0666*48
$GPGGA,073730.00,3037.82911,N,10401.39676,E,4,12,0.56,484.2,M,-29.8,M,1.0,0666*47
$GPGGA,073955.00,3037.83957,N,10401.37696,E,4,12,0.58,484.1,M,-29.8,M,1.0,0666*44
$GPGGA,074250.00,3037.85496,N,10401.37309,E,4,12,0.53,484.1,M,-29.8,M,1.0,0666*43
$GPGGA,074433.00,3037.84635,N,10401.38774,E,4,12,0.52,484.2,M,-29.8,M,1.0,0666*49
$GPGGA,074834.00,3037.83413,N,10401.40915,E,4,12,0.56,484.2,M,-29.8,M,1.0,0666*41
$GPGGA,075120.00,3037.82253,N,10401.42994,E,4,12,0.52,484.3,M,-29.8,M,1.0,0666*41
$GPGGA,075553.00,3037.81099,N,10401.45061,E,4,12,0.58,484.2,M,-29.8,M,1.0,0666*49
$GPGGA,075830.00,3037.79482,N,10401.47492,E,4,12,0.56,484.1,M,-29.8,M,1.0,0666*4F
$GPGGA,080412.00,3037.78602,N,10401.49143,E,4,12,0.61,484.1,M,-29.8,M,1.0,0666*41
$GPGGA,080733.00,3037.77144,N,10401.51739,E,4,12,0.72,484.0,M,-29.8,M,1.0,0666*4A
$GPGGA,080951.00,3037.75874,N,10401.54001,E,4,12,0.65,483.9,M,-29.8,M,1.0,0666*49
$GPGGA,081232.00,3037.77118,N,10401.55492,E,4,12,0.70,484.3,M,-29.8,M,1.0,0666*41
$GPGGA,081443.00,3037.78490,N,10401.56419,E,4,12,0.71,484.4,M,-29.8,M,1.0,0666*4D
$GPGGA,081651.00,3037.79860,N,10401.57252,E,4,12,0.60,484.6,M,-29.8,M,1.0,0666*44
$GPGGA,081908.00,3037.81302,N,10401.58050,E,4,12,0.59,484.8,M,-29.8,M,1.0,0666*44
$GPGGA,082229.00,3037.82734,N,10401.58865,E,4,12,0.69,484.9,M,-29.8,M,1.0,0666*41
$GPGGA,082540.00,3037.84176,N,10401.59698,E,5,12,0.58,486.1,M,-29.8,M,1.0,0666*4B
$GPGGA,082855.00,3037.85580,N,10401.60489,E,4,12,0.65,485.2,M,-29.8,M,1.0,0666*49
$GPGGA,083428.00,3037.89797,N,10401.53351,E,4,12,0.65,484.6,M,-29.8,M,1.0,0666*41
$GPGGA,083622.00,3037.88145,N,10401.52244,E,4,12,0.60,484.7,M,-29.8,M,1.0,0666*41
$GPGGA,083848.00,3037.86366,N,10401.51083,E,4,12,0.59,484.5,M,-29.8,M,1.0,0666*4C
$GPGGA,084046.00,3037.84700,N,10401.49978,E,4,12,0.57,484.3,M,-29.8,M,1.0,0666*47
$GPGGA,084311.00,3037.82705,N,10401.48695,E,4,12,0.55,484.3,M,-29.8,M,1.0,0666*4A
$GPGGA,084626.00,3037.80852,N,10401.47462,E,4,12,0.56,484.1,M,-29.8,M,2.0,0666*43
$GPGGA,090002.00,3037.94589,N,10401.44326,E,4,12,0.50,485.0,M,-29.8,M,1.0,0666*49
$GPGGA,090244.00,3037.93916,N,10401.46640,E,4,12,0.52,484.8,M,-29.8,M,1.0,0666*48
$GPGGA,090507.00,3037.93159,N,10401.48927,E,4,12,0.50,484.7,M,-29.8,M,1.0,0666*46
$GPGGA,090850.00,3037.92720,N,10401.50914,E,4,12,0.57,484.7,M,-29.8,M,1.0,0666*4E
$GPGGA,091427.00,3037.91586,N,10401.53321,E,4,12,0.53,484.7,M,-29.8,M,1.0,0666*45
$GPGGA,091824.00,3037.90409,N,10401.55180,E,4,12,0.65,484.9,M,-29.8,M,1.0,0666*49
$GPGGA,092048.00,3037.89684,N,10401.56607,E,4,12,0.60,485.1,M,-29.8,M,1.0,0666*40
$GPGGA,092329.00,3037.88883,N,10401.58182,E,4,12,0.62,485.4,M,-29.8,M,1.0,0666*4F
$GPGGA,092547.00,3037.88093,N,10401.59773,E,4,12,0.61,485.7,M,-29.8,M,1.0,0666*41
$GPGGA,092821.00,3037.87297,N,10401.61307,E,4,12,0.64,485.4,M,-29.8,M,1.0,0666*4F
$GPGGA,093215.00,3037.86628,N,10401.62630,E,4,12,0.62,485.8,M,-29.8,M,1.0,0666*4A
$GPGGA,093727.00,3037.91442,N,10401.54468,E,4,12,0.53,484.7,M,-29.8,M,1.0,0666*40
$GPGGA,093957.00,3037.92897,N,10401.55410,E,4,12,0.56,484.8,M,-29.8,M,1.0,0666*4A
$GPGGA,094408.00,3037.94210,N,10401.56280,E,4,12,0.56,485.0,M,-29.8,M,1.0,0666*4C
$GPGGA,094834.00,3037.95892,N,10401.57352,E,4,12,0.53,485.0,M,-29.8,M,1.0,0666*44
$GPGGA,095215.00,3037.97503,N,10401.58362,E,4,12,0.56,485.0,M,-29.8,M,1.0,0666*42
$GPGGA,095552.00,3037.99026,N,10401.59583,E,4,12,0.57,485.0,M,-29.8,M,1.0,0666*43
$GPGGA,095924.00,3038.00559,N,10401.61328,E,4,12,0.55,485.0,M,-29.8,M,1.0,0666*42
$GPGGA,100509.00,3038.01570,N,10401.62959,E,5,12,0.57,484.9,M,-29.8,M,1.0,0666*42
$GPGGA,024750.00,3038.18746,N,10401.63256,E,4,12,0.48,486.2,M,-29.8,M,1.0,0666*47
$GPGGA,025135.00,3038.17172,N,10401.64963,E,4,12,0.50,486.0,M,-29.8,M,1.0,0666*4C
$GPGGA,025345.00,3038.15629,N,10401.66653,E,4,12,0.60,485.8,M,-29.8,M,1.0,0666*44
$GPGGA,025645.00,3038.13973,N,10401.68372,E,4,12,0.56,485.5,M,-29.8,M,1.0,0666*47
$GPGGA,030053.00,3038.12446,N,10401.70034,E,4,12,0.51,485.3,M,-29.8,M,1.0,0666*41
$GPGGA,030344.00,3038.10885,N,10401.71732,E,4,12,0.48,485.1,M,-29.8,M,1.0,0666*4F
$GPGGA,030614.00,3038.10116,N,10401.73272,E,4,12,0.59,484.9,M,-29.8,M,1.0,0666*46
$GPGGA,031148.00,3038.07888,N,10401.74420,E,4,12,0.48,484.9,M,-29.8,M,1.0,0666*47
$GPGGA,031507.00,3038.06341,N,10401.76213,E,4,12,0.59,484.8,M,-29.8,M,1.0,0666*42
$GPGGA,031911.00,3038.04858,N,10401.78010,E,5,12,0.48,485.1,M,-29.8,M,1.0,0666*4E
$GPGGA,032243.00,3038.03523,N,10401.79588,E,5,12,0.54,485.8,M,-29.8,M,1.0,0666*46
$GPGGA,032546.00,3038.01803,N,10401.81513,E,4,12,0.56,484.8,M,-29.8,M,1.0,0666*4E
$GPGGA,032825.00,3038.00400,N,10401.83165,E,4,12,0.49,485.3,M,-29.8,M,1.0,0666*4B
$GPGGA,033050.00,3037.98905,N,10401.84929,E,4,12,0.49,485.1,M,-29.8,M,1.0,0666*43
$GPGGA,033403.00,3037.97389,N,10401.86714,E,4,12,0.48,485.2,M,-29.8,M,1.0,0666*40
$GPGGA,034424.00,3038.16605,N,10401.84649,E,4,12,0.56,485.3,M,-29.8,M,1.0,0666*40
$GPGGA,034639.00,3038.15716,N,10401.83264,E,4,12,0.59,485.2,M,-29.8,M,1.0,0666*4C
$GPGGA,034831.00,3038.14531,N,10401.81672,E,4,12,0.64,485.2,M,-29.8,M,1.0,0666*43
$GPGGA,035114.00,3038.13382,N,10401.80055,E,4,12,0.54,485.3,M,-29.8,M,1.0,0666*45
$GPGGA,035345.00,3038.12278,N,10401.78380,E,4,12,0.61,485.4,M,-29.8,M,1.0,0666*4B
$GPGGA,035718.00,3038.11215,N,10401.76665,E,4,12,0.57,485.2,M,-29.8,M,1.0,0666*4C
$GPGGA,035938.00,3038.10286,N,10401.75135,E,4,12,0.50,484.9,M,-29.8,M,1.0,0666*47
$GPGGA,040246.00,3038.09495,N,10401.73993,E,4,12,0.49,484.9,M,-29.8,M,1.0,0666*41
$GPGGA,040651.00,3038.08619,N,10401.73277,E,4,12,0.53,484.9,M,-29.8,M,1.0,0666*4E
$GPGGA,040926.00,3038.07944,N,10401.71600,E,4,12,0.51,484.8,M,-29.8,M,1.0,0666*4C
$GPGGA,041149.00,3038.06502,N,10401.69704,E,4,12,0.52,484.8,M,-29.8,M,1.0,0666*4C
$GPGGA,041358.00,3038.05314,N,10401.68095,E,4,12,0.55,484.8,M,-29.8,M,1.0,0666*45
$GPGGA,041750.00,3038.04106,N,10401.66499,E,4,12,0.58,484.8,M,-29.8,M,1.0,0666*42
$GPGGA,042217.00,3038.02856,N,10401.64965,E,4,12,0.54,485.2,M,-29.8,M,1.0,0666*46
$GPGGA,042611.00,3037.99923,N,10401.65880,E,4,12,0.65,485.7,M,-29.8,M,1.0,0666*46
$GPGGA,042926.00,3038.01538,N,10401.65324,E,4,12,0.59,485.7,M,-29.8,M,1.0,0666*4F
$GPGGA,043202.00,3038.03520,N,10401.64420,E,4,12,0.57,485.1,M,-29.8,M,1.0,0666*42
$GPGGA,043451.00,3038.04645,N,10401.62992,E,4,12,0.52,485.3,M,-29.8,M,1.0,0666*40
$GPGGA,043726.00,3038.05952,N,10401.61583,E,4,12,0.69,485.4,M,-29.8,M,1.0,0666*4B
$GPGGA,043939.00,3038.07016,N,10401.60049,E,4,12,0.69,485.6,M,-29.8,M,1.0,0666*40
$GPGGA,044304.00,3038.07796,N,10401.58297,E,4,12,0.62,485.8,M,-29.8,M,1.0,0666*43
$GPGGA,044520.00,3038.08480,N,10401.56488,E,4,12,0.57,486.2,M,-29.8,M,1.0,0666*41
$GPGGA,045007.00,3038.09264,N,10401.55129,E,5,12,0.56,500.5,M,-29.8,M,2.0,0666*4B
$GPGGA,045238.00,3038.09384,N,10401.53016,E,5,12,0.58,495.6,M,-29.8,M,1.0,0666*42
$GPGGA,045521.00,3038.08597,N,10401.52058,E,5,12,0.53,489.3,M,-29.8,M,1.0,0666*40
$GPGGA,045850.00,3038.07218,N,10401.50641,E,5,12,0.56,488.5,M,-29.8,M,1.0,0666*4A
$GPGGA,050132.00,3038.05972,N,10401.49233,E,4,12,0.51,485.8,M,-29.8,M,1.0,0666*49
$GPGGA,050326.00,3038.04761,N,10401.47910,E,4,12,0.53,485.7,M,-29.8,M,1.0,0666*4A
